City,Cloudiness,Country,Date,Humidity,Lat,Lng,Max Temp,Wind Speed
Yellowknife,20,CA,1561513851,37,62.45,-114.38,295.15,3.1
Punta Arenas,90,CL,1561513852,96,-53.16,-70.91,273.15,3.1
Busselton,0,AU,1561513852,82,-33.64,115.35,289.26,16.4
Chifeng,100,CN,1561513852,43,42.27,118.96,297.615,5.13
Rio Gallegos,90,AR,1561513852,59,-51.62,-69.22,276.15,2.6
Soeng Sang,0,TH,1561513853,83,14.43,102.46,304.82,3.1
Contamana,51,PE,1561513853,71,-7.35,-75.01,297.215,1.3
Puerto Ayora,18,EC,1561513856,85,-0.74,-90.35,295.415,4.57
Jamestown,0,AU,1561513807,47,-33.21,138.6,289.715,4.98
Saint George,40,GR,1561513857,77,39.45,22.34,297.15,0.53
Port Augusta,0,AU,1561513857,54,-32.49,137.76,287.15,2.1
Tazovskiy,0,RU,1561513857,58,67.47,78.7,279.015,3.46
Rikitea,0,PF,1561513858,81,-23.12,-134.97,296.115,3.21
Hermanus,73,ZA,1561513858,88,-34.42,19.24,287.59,2.24
Lorengau,20,PG,1561513858,78,-2.02,147.27,301.715,3.37
San Giovanni in Fiore,40,IT,1561513858,83,39.25,16.7,296.15,2.1
Mount Gambier,80,AU,1561513858,76,-37.83,140.78,285.15,6.7
Dehloran,0,IR,1561513859,10,32.69,47.27,303.215,4.28
Longyearbyen,75,NO,1561513859,70,78.22,15.63,279.15,4.1
Comodoro Rivadavia,0,AR,1561513859,49,-45.87,-67.48,282.15,4.6
Kharitonovo,56,RU,1561513859,60,61.4,47.5,283.415,1.34
San Patricio,100,PY,1561513860,82,-26.98,-56.83,280.515,3.18
Saskylakh,45,RU,1561513860,27,71.97,114.09,302.215,4.7
Leningradskiy,78,RU,1561513860,88,69.38,178.42,274.815,7.74
Hobart,0,AU,1561513650,57,-42.88,147.33,292.59,4.6
Ust-Tsilma,11,RU,1561513861,57,65.44,52.15,284.615,1.7
Ushuaia,40,AR,1561513861,92,-54.81,-68.31,272.15,1.5
Marzuq,94,YE,1561513861,35,14.4,46.47,300.715,1.63
Denpasar,20,ID,1561513758,88,-8.65,115.22,299.15,4.1
Hilo,1,US,1561513861,48,19.71,-155.08,304.15,8.7
Chokurdakh,0,RU,1561513862,25,70.62,147.9,298.215,4.58
Nikolskoye,0,RU,1561513862,66,59.7,30.79,287.04,2.0
Nioro,0,GM,1561513862,75,13.79,-15.05,297.315,6.42
Chulym,0,RU,1561513862,77,55.09,80.97,292.615,4.64
Inzer,58,RU,1561513863,84,54.22,57.56,285.615,0.88
Kloulklubed,90,PW,1561513863,83,7.04,134.26,300.15,3.8
Lasa,0,CY,1561513863,60,34.92,32.53,297.15,2.1
Victoria,75,BN,1561513864,79,5.28,115.24,303.15,1.5
Tarbes,45,FR,1561513864,93,43.23,0.08,293.15,2.1
Qasigiannguit,100,GL,1561513864,70,68.82,-51.19,281.15,2.6
Thompson,90,CA,1561513601,82,55.74,-97.86,288.15,3.1
Urucara,82,BR,1561513865,96,-2.54,-57.76,296.015,0.86
Aswan,38,EG,1561513865,13,24.09,32.9,305.215,4.18
Ponta do Sol,96,BR,1561513866,66,-20.63,-46.0,291.815,1.67
Mahebourg,75,MU,1561513866,88,-20.41,57.7,296.15,5.1
Ilulissat,93,GL,1561513866,70,69.22,-51.1,281.15,2.6
Kaitangata,0,NZ,1561513869,48,-46.28,169.85,285.93,3.13
Marsh Harbour,0,BS,1561513869,70,26.54,-77.06,302.515,1.71
Talnakh,75,RU,1561513870,60,69.49,88.39,277.15,6.0
Cape Town,0,ZA,1561513320,87,-33.93,18.42,288.15,2.6
Hofn,97,IS,1561513870,71,64.25,-15.21,278.215,4.18
Tutoia,0,BR,1561513871,91,-2.76,-42.27,296.415,1.65
Muncar,40,ID,1561513871,67,-8.43,114.34,299.515,1.93
Atuona,0,PF,1561513871,77,-9.8,-139.03,300.415,7.92
Castro,90,CL,1561513872,100,-42.48,-73.76,282.15,5.7
Port Alfred,30,ZA,1561513872,95,-33.59,26.89,288.15,3.13
Gweta,0,BW,1561513872,58,-20.21,25.26,286.515,4.9
Nome,75,US,1561513872,94,30.04,-94.42,296.15,3.6
Iracoubo,100,GF,1561513873,94,5.48,-53.21,297.215,1.91
Butaritari,100,KI,1561513873,69,3.07,172.79,302.215,3.67
Anadyr,90,RU,1561513873,76,64.73,177.51,282.15,7.0
Esperance,20,TT,1561513873,74,10.24,-61.45,300.37,2.1
Souillac,0,FR,1561513874,78,45.6,-0.6,296.15,2.6
Vaini,75,IN,1561513874,100,15.34,74.49,295.15,2.1
Bluff,34,AU,1561513874,66,-23.58,149.07,292.615,9.93
Sokoni,0,CD,1561513875,84,-12.89,28.78,282.915,2.17
Vila Velha,40,BR,1561513875,78,-3.71,-38.6,300.15,4.6
Port Elizabeth,1,US,1561513875,88,39.31,-74.98,300.15,1.5
Jalu,0,LY,1561513876,47,29.03,21.55,299.015,6.55
Carnarvon,0,ZA,1561513876,34,-30.97,22.13,279.415,4.68
Brae,34,GB,1561513876,87,60.4,-1.35,283.15,2.1
Barrow,0,AR,1561513876,61,-38.31,-60.23,276.715,3.67
Evanston,1,US,1561513713,57,42.04,-87.69,302.15,1.5
Rumilly,0,FR,1561513877,88,45.87,5.94,296.48,1.0
Latung,20,ID,1561513877,38,-8.45,120.42,304.515,1.05
Isangel,75,VU,1561513877,69,-19.55,169.27,301.15,4.1
Ostrovnoy,0,RU,1561513878,63,68.05,39.51,282.915,5.58
Tuktoyaktuk,90,CA,1561513878,84,69.44,-133.03,277.15,9.3
Beringovskiy,100,RU,1561513878,96,63.05,179.32,279.215,6.48
Arraial do Cabo,0,BR,1561513878,79,-22.97,-42.02,296.315,4.45
Clyde River,75,CA,1561513879,75,70.47,-68.59,273.15,3.1
Bemidji,40,US,1561513879,60,47.48,-94.89,296.15,2.6
Mende,0,FR,1561513879,61,44.52,3.5,288.715,2.77
Irituia,36,BR,1561513880,97,-1.77,-47.44,295.015,1.63
Touros,20,BR,1561513880,88,-5.2,-35.46,297.15,2.6
Albany,1,US,1561513660,77,42.65,-73.75,296.15,2.6
Eureka,1,US,1561513808,77,40.8,-124.16,289.15,6.2
Unity,65,CA,1561513881,77,52.44,-109.15,290.93,2.24
Bredasdorp,84,ZA,1561513881,77,-34.53,20.04,289.15,5.7
Matucana,59,PE,1561513882,60,-11.84,-76.39,283.615,0.69
Tateyama,40,JP,1561513882,45,36.66,137.31,304.82,2.6
Tromso,75,NO,1561513609,81,69.65,18.96,282.15,6.7
Cherskiy,67,RU,1561513882,15,68.75,161.3,297.815,6.66
Awbari,0,LY,1561513883,17,26.59,12.77,303.715,4.27
Coquimbo,0,CL,1561513883,76,-29.95,-71.34,283.15,2.1
Bambous Virieux,75,MU,1561513883,88,-20.34,57.76,296.15,5.1
Salym,100,RU,1561513883,94,60.06,71.48,281.615,5.85
Mataura,46,NZ,1561513884,68,-46.19,168.86,283.71,3.58
Pangnirtung,0,CA,1561513884,52,66.15,-65.72,283.715,1.17
Paternion,0,AT,1561513884,82,46.71,13.64,293.15,1.5
Tasiilaq,5,GL,1561513884,80,65.61,-37.64,278.15,3.6
Los Llanos de Aridane,40,ES,1561513884,68,28.66,-17.92,295.15,6.7
Bonavista,21,CA,1561513885,86,48.65,-53.11,279.82,1.79
Upernavik,100,GL,1561513885,88,72.79,-56.15,273.615,3.71
Sabha,43,LY,1561513886,22,27.03,14.43,303.515,6.73
Tamworth,0,AU,1561513886,48,-31.09,150.93,291.15,4.1
Airai,0,TL,1561513886,39,-8.93,125.41,301.515,1.0
Shaunavon,68,CA,1561513887,61,49.65,-108.41,288.415,1.39
New Norfolk,0,AU,1561513887,57,-42.78,147.06,292.59,4.6
Zemst,46,BE,1561513887,88,50.98,4.47,293.15,2.6
Georgetown,75,GY,1561513776,78,6.8,-58.16,301.15,4.1
Talara,86,PE,1561513888,87,-4.58,-81.27,292.115,8.82
Saint-Philippe,40,CA,1561513888,88,45.36,-73.48,296.15,1.5
Kibondo,88,TZ,1561513888,64,-3.59,30.72,293.115,0.08
Rantepao,0,ID,1561513888,58,-2.97,119.9,296.915,1.73
Havoysund,100,NO,1561513889,81,71.0,24.66,281.15,13.9
Dikson,87,RU,1561513889,96,73.51,80.55,273.615,9.24
Port Moresby,75,PG,1561513889,78,-9.47,147.16,301.15,5.1
Shingu,75,JP,1561513889,65,33.72,135.99,299.15,2.6
Thunder Bay,75,CA,1561513875,82,48.41,-89.26,291.48,3.6
Shizukuishi,20,JP,1561513890,73,39.7,140.98,296.15,1.5
Kodiak,1,US,1561513699,69,39.95,-94.76,300.15,2.6
Snasa,79,NO,1561513890,94,64.25,12.38,279.215,1.16
Umm Kaddadah,100,SD,1561513890,48,13.6,26.69,301.815,5.49
Sibolga,35,ID,1561513891,73,1.74,98.78,300.715,1.95
Constitucion,75,MX,1561513891,33,23.99,-104.67,297.15,6.7
Juba,100,EE,1561513891,82,57.82,26.93,287.15,1.0
Palafrugell,0,ES,1561513892,82,41.92,3.16,293.71,1.5
Riyadh,0,SA,1561513783,11,24.63,46.72,303.15,2.6
Lebu,40,ET,1561513893,82,8.96,38.73,288.15,1.21
Semporna,75,MY,1561513893,79,4.48,118.61,302.15,2.1
Salvador,40,BR,1561513893,94,-12.98,-38.48,296.15,1.0
Road Town,20,VG,1561513732,78,18.42,-64.62,302.15,3.1
La Ronge,75,CA,1561513894,72,55.1,-105.3,288.15,1.5
Necochea,1,AR,1561513894,90,-38.55,-58.74,277.59,0.89
Qaanaaq,88,GL,1561513895,88,77.48,-69.36,274.115,1.19
Hasaki,40,JP,1561513895,61,35.73,140.83,302.04,3.1
Salalah,75,OM,1561513895,94,17.01,54.1,301.15,2.6
Carnot,100,CF,1561513896,97,4.94,15.87,292.815,1.38
Codrington,35,AU,1561513896,87,-28.95,153.24,291.15,4.1
Polanco,100,PH,1561513896,68,8.53,123.36,302.415,3.64
Cap Malheureux,75,MU,1561513896,88,-19.98,57.61,296.15,5.1
Alpena,1,US,1561513897,56,45.06,-83.43,297.15,4.1
Avarua,32,CK,1561513897,69,-21.21,-159.78,298.15,4.6
Klaksvik,93,FO,1561513897,93,62.23,-6.59,283.15,4.1
Luwuk,96,ID,1561513715,88,-0.95,122.79,293.715,2.37
Zyryanka,15,RU,1561513898,24,65.73,150.89,299.015,3.46
Talcahuano,75,CL,1561513898,81,-36.72,-73.12,283.15,2.6
Lagoa,75,PT,1561513898,100,37.14,-8.45,293.15,2.1
Morro Bay,75,US,1561513861,72,35.37,-120.85,295.37,5.1
Avera,1,US,1561513899,83,33.19,-82.53,301.15,2.2
Torbay,5,CA,1561513745,81,47.66,-52.73,282.59,4.1
Richards Bay,100,ZA,1561513899,77,-28.77,32.06,292.115,4.4
Evensk,56,RU,1561513899,38,61.92,159.24,291.615,4.25
Roald,75,NO,1561513900,81,62.58,6.12,284.82,5.7
Tambovka,0,UA,1561513900,79,46.93,35.45,290.915,5.36
Hamilton,20,CA,1561513328,77,43.26,-79.87,295.37,3.6
Imbituba,0,BR,1561513810,83,-28.24,-48.67,294.15,2.1
Faanui,14,PF,1561513901,78,-16.48,-151.75,299.615,6.1
Mountain Home,75,US,1561513883,18,43.13,-115.69,301.15,6.7
Guerrero Negro,59,MX,1561513901,86,27.97,-114.04,290.515,6.28
Petropavlovsk-Kamchatskiy,90,RU,1561513901,100,53.05,158.65,281.15,5.0
Hithadhoo,58,MV,1561513902,70,-0.6,73.08,302.115,3.04
Provideniya,75,RU,1561513902,71,64.42,-173.23,283.15,10.0
Aklavik,75,CA,1561513902,61,68.22,-135.01,279.15,7.2
Mangrol,20,IN,1561513902,70,25.33,76.51,303.15,0.5
Sao Filipe,0,CV,1561513903,85,14.9,-24.5,296.715,8.02
Bethel,75,US,1561513808,52,60.79,-161.76,295.15,3.1
Grogol,1,ID,1561513903,52,-8.02,111.54,301.215,0.83
Sitka,0,US,1561513904,60,37.17,-99.65,294.715,8.14
Victoria,75,BN,1561513706,79,5.28,115.24,303.15,1.5
Norman Wells,75,CA,1561513755,81,65.28,-126.83,284.15,8.2
Khatanga,100,RU,1561513904,62,71.98,102.47,288.215,7.01
Pevek,0,RU,1561513905,84,69.7,170.27,275.115,10.93
Mont-Dore,0,NC,1561513905,73,-22.23,166.53,297.15,9.3
Hami,75,CN,1561513905,24,42.84,93.51,298.415,3.59
Tiarei,75,PF,1561513905,58,-17.53,-149.33,302.15,2.6
Waddan,0,LY,1561513905,41,29.16,16.14,299.315,2.51
Datia,34,IN,1561513906,40,25.66,78.46,308.715,6.22
Coahuayana,67,MX,1561513906,79,18.62,-100.35,298.015,0.13
College,20,US,1561513906,23,64.86,-147.8,297.15,1.5
The Valley,20,AI,1561513906,78,18.22,-63.06,301.15,3.1
Basoko,100,CD,1561513907,97,1.23,23.61,293.615,0.91
Pisco,0,PE,1561513907,82,-13.71,-76.2,290.15,2.6
Mar del Plata,100,AR,1561513814,58,-46.43,-67.52,279.015,8.46
Ribeira Grande,93,PT,1561513907,71,38.52,-28.7,292.015,6.24
Parana,6,BR,1561513908,88,-7.52,-72.89,295.315,0.86
Blagoyevo,95,RU,1561513908,72,63.37,47.92,283.815,1.28
Wattegama,100,LK,1561513909,72,7.35,80.68,299.615,3.27
Kapaa,90,US,1561513640,78,22.08,-159.32,301.15,4.6
Dakar,0,SN,1561513440,88,14.69,-17.45,298.15,2.1
Bonthe,75,SL,1561513909,91,7.53,-12.5,298.415,3.69
Baherden,0,TM,1561513909,13,38.44,57.43,300.915,3.39
Sioux Lookout,75,CA,1561513910,72,50.1,-91.92,293.15,2.6
Wakkanai,75,JP,1561513910,77,45.41,141.67,292.15,12.9
Kulhudhuffushi,100,MV,1561513910,76,6.62,73.07,301.615,5.15
Kargasok,100,RU,1561513910,62,59.06,80.87,295.015,4.3
Klishkivtsi,5,UA,1561513911,92,48.43,26.26,289.26,1.34
Ixtapa,75,MX,1561513911,55,20.71,-105.21,304.15,4.1
Ranau,75,MY,1561513911,70,5.95,116.67,304.26,1.5
Coachella,1,US,1561513689,17,33.68,-116.18,310.15,1.5
Hambantota,40,LK,1561513912,100,6.12,81.12,300.15,3.6
Iqaluit,20,CA,1561513912,61,63.75,-68.52,282.15,1.0
Saldanha,45,PT,1561513912,79,41.42,-6.55,288.615,0.67
Kosh-Agach,0,RU,1561513912,42,49.99,88.66,280.315,0.92
Avenal,20,US,1561513913,17,36.0,-120.13,308.15,6.7
Tiksi,51,RU,1561513913,53,71.64,128.87,288.615,2.12
Krasnokamensk,100,RU,1561513913,71,50.1,118.04,294.015,7.88
Pangai,40,TO,1561513914,74,-19.8,-174.35,299.15,4.1
Uray,100,RU,1561513914,47,60.13,64.8,287.115,4.07
Lexington,1,US,1561513806,60,38.05,-84.5,297.15,1.5
Cayenne,83,GF,1561513914,88,4.94,-52.33,299.15,1.67
Dmitrov,0,RU,1561513915,71,56.35,37.52,287.15,2.59
Yar-Sale,64,RU,1561513916,57,66.83,70.83,282.115,5.75
Zheleznodorozhnyy,0,RU,1561513916,81,55.75,38.0,290.37,2.0
Cabo San Lucas,5,MX,1561513772,18,22.89,-109.91,305.15,4.6
Shenjiamen,100,CN,1561513916,85,29.96,122.3,295.015,2.77
Yugorsk,77,RU,1561513916,49,61.32,63.33,286.815,1.16
Hervey Bay,75,AU,1561513917,93,-25.3,152.85,292.04,5.7
Chuy,100,UY,1561513917,63,-33.69,-53.46,281.915,7.48
Pedernales,37,EC,1561513917,85,0.07,-80.05,297.415,6.23
Dzerzhinskoye,100,RU,1561513917,82,56.84,95.22,292.515,3.17
Warrington,75,GB,1561513918,82,53.39,-2.59,287.59,5.7
Labytnangi,100,RU,1561513918,97,66.66,66.39,276.015,1.42
Homer,1,US,1561513918,55,59.64,-151.54,293.15,5.1
Port Lincoln,0,AU,1561513919,56,-34.72,135.86,288.415,7.68
Matadi,39,CD,1561513919,94,-5.83,13.46,291.815,1.35
Avola,0,IT,1561513870,83,36.91,15.13,298.15,1.5
Tura,100,IN,1561513919,91,25.52,90.21,299.815,5.1
Yamada,40,JP,1561513919,45,36.58,137.08,304.82,2.6
Liverpool,75,GB,1561513920,82,53.41,-2.98,288.15,5.7
Ahipara,0,NZ,1561513920,79,-35.17,173.16,287.715,6.18
Kabo,100,CF,1561513920,96,7.69,18.62,295.215,3.34
Acheng,0,CN,1561513921,53,45.55,126.95,298.15,8.0
Nanortalik,100,GL,1561513921,81,60.14,-45.24,280.315,2.74
Finnsnes,100,NO,1561513921,66,69.23,17.98,282.15,7.7
Neuquen,0,AR,1561513921,34,-38.95,-68.06,283.15,8.7
Asyut,0,EG,1561513922,34,27.18,31.19,299.115,3.35
Caramay,100,PH,1561513922,81,10.18,119.24,300.915,3.26
Bedesa,0,ET,1561513922,81,8.9,40.78,291.215,4.9
Nargana,99,PA,1561513923,81,9.44,-78.59,300.415,2.81
Kupang,20,ID,1561513923,51,-10.16,123.6,301.15,8.2
Yaan,62,NG,1561513923,96,7.38,8.57,295.415,2.23
Bowen,0,AU,1561513923,56,-20.01,148.25,297.04,6.2
Meulaboh,78,ID,1561513924,65,4.14,96.13,301.215,2.12
Srednekolymsk,1,RU,1561513924,20,67.46,153.71,301.115,5.32
Gouyave,20,GD,1561513924,78,12.16,-61.73,300.15,5.7
Altagracia de Orituco,100,VE,1561513925,97,9.86,-66.38,293.815,1.7
Cockburn Town,0,TC,1561513925,79,21.46,-71.14,300.315,6.82
Celestun,15,MX,1561513925,75,20.87,-90.4,301.615,11.06
Severo-Kurilsk,100,RU,1561513925,94,50.68,156.12,279.615,10.02
Carballo,100,ES,1561513926,100,43.21,-8.69,290.93,1.0
Batagay-Alyta,52,RU,1561513926,40,67.8,130.41,292.215,1.67
Nhulunbuy,0,AU,1561513926,50,-12.18,136.78,299.15,6.7
Hastings,0,NZ,1561513744,72,-39.64,176.84,284.415,1.96
Makat,100,KZ,1561513927,75,47.65,53.35,295.015,2.8
Port Hardy,40,CA,1561513671,48,50.7,-127.42,292.15,7.2
Igarka,34,RU,1561513927,38,67.47,86.57,283.615,3.44
Hualmay,53,PE,1561513928,85,-11.1,-77.61,290.215,6.96
Nemuro,0,JP,1561513928,60,43.32,145.57,297.15,5.1
Naryan-Mar,39,RU,1561513928,66,67.67,53.09,281.815,7.53
Luderitz,0,NA,1561513928,76,-26.65,15.16,283.15,2.1
Paamiut,100,GL,1561513928,99,61.99,-49.67,277.515,2.6
Springbok,0,ZA,1561513929,90,-29.67,17.88,278.415,1.23
Vestmanna,99,FO,1561513929,93,62.16,-7.17,283.15,4.1
Morant Bay,20,JM,1561513929,62,17.88,-76.41,302.15,3.6
Praia,0,BR,1561513930,82,-20.25,-43.81,292.15,0.8
Adrar,0,DZ,1561513930,6,27.87,-0.29,307.15,3.1
Carutapera,14,BR,1561513930,91,-1.2,-46.02,297.615,2.18
Port Blair,99,IN,1561513883,80,11.67,92.75,301.415,8.68
Goderich,88,CA,1561513931,72,43.74,-81.71,293.15,0.45
Lipari,5,IT,1561513931,61,38.47,14.95,299.15,1.5
Kudahuvadhoo,99,MV,1561513931,69,2.67,72.89,302.015,2.51
Boyuibe,46,BO,1561513931,79,-20.43,-63.28,278.915,3.63
Herat,0,AF,1561513932,11,34.35,62.22,294.15,5.26
Jumla,90,NP,1561513932,71,29.28,82.18,290.715,1.37
Banjar,27,ID,1561513932,61,-7.37,108.54,301.315,1.0
Baykit,100,RU,1561513932,30,61.68,96.39,298.715,1.27
La Rioja,0,AR,1561513647,31,-29.41,-66.86,276.615,2.72
Saint Augustine,20,TT,1561513933,74,10.65,-61.4,300.37,2.1
Hobyo,27,SO,1561513933,70,5.35,48.53,297.715,6.56
Oktyabrskiy,0,RU,1561513933,81,55.61,37.97,290.37,2.0
Mnogovershinnyy,100,RU,1561513935,85,53.94,139.92,280.415,3.54
Letlhakane,0,BW,1561513935,69,-21.42,25.59,285.515,5.0
Sangar,98,RU,1561513935,45,63.92,127.47,295.615,3.71
Vung Tau,17,VN,1561513935,76,10.35,107.08,302.815,3.53
Rocha,66,UY,1561513646,65,-34.48,-54.34,279.115,5.42
Tuatapere,99,NZ,1561513936,68,-46.13,167.69,283.71,3.58
Sosnovo-Ozerskoye,100,RU,1561513936,93,52.53,111.54,287.015,1.38
Migori,100,KE,1561513936,79,-1.07,34.47,293.915,4.07
Kermanshah,0,IR,1561513937,20,34.32,47.07,293.15,2.6
Berlevag,100,NO,1561513937,85,70.86,29.09,280.615,9.07
Mayor Pablo Lagerenza,72,PY,1561513937,55,-19.93,-60.77,285.215,5.4
Kavieng,100,PG,1561513937,73,-2.57,150.8,302.415,7.72
Fairbanks,20,US,1561513911,23,64.84,-147.72,297.15,1.5
Bashtanka,0,UA,1561513938,73,47.4,32.45,291.415,5.19
Vostok,100,RU,1561513938,71,46.45,135.83,295.915,2.65
Moose Factory,90,CA,1561513939,82,51.26,-80.61,290.15,5.1
Sheridan,75,US,1561513920,27,39.65,-105.03,300.37,6.2
Kibaya,100,RW,1561513940,95,-2.2,30.56,288.415,1.13
North Platte,1,US,1561513940,57,41.12,-100.77,298.15,3.1
Ulaangom,66,MN,1561513940,26,49.98,92.07,290.115,6.94
Puerto Carreno,40,CO,1561513940,94,6.19,-67.49,298.15,1.35
Schwandorf,27,DE,1561513941,90,49.33,12.11,292.04,1.15
Auki,80,NG,1561513941,84,12.18,6.51,296.415,10.07
Vestmannaeyjar,90,IS,1561513941,100,63.44,-20.27,283.15,7.7
Cidreira,100,BR,1561513941,81,-30.17,-50.22,284.015,6.67
Lovrin,0,RO,1561513942,100,45.97,20.77,294.26,2.1
Grand Gaube,75,MU,1561513942,88,-20.01,57.66,296.15,5.1
Nantucket,75,US,1561513866,93,41.28,-70.1,293.15,5.1
Lukovetskiy,40,RU,1561513942,87,64.29,41.92,283.15,2.0
Dawei,100,MM,1561513942,87,14.07,98.19,300.215,5.97
Rawson,99,AR,1561513943,55,-43.3,-65.11,278.215,8.25
Emerald,75,AU,1561513943,68,-23.53,148.16,293.15,8.2
Bereda,99,ES,1561513943,100,43.27,-7.54,290.37,1.0
Sao Gabriel da Cachoeira,80,BR,1561513943,97,-0.13,-67.09,295.915,0.9
Gariaband,0,IN,1561513944,58,20.63,82.06,304.515,2.23
Tomatlan,62,MX,1561513944,82,19.93,-105.25,300.415,1.87
Muzhi,26,RU,1561513944,54,65.4,64.7,283.715,5.49
Mount Isa,0,AU,1561513944,18,-20.73,139.49,294.15,5.7
Mezen,1,RU,1561513945,70,65.85,44.24,284.715,2.64
Puerto El Triunfo,40,SV,1561513945,74,13.27,-88.55,302.15,0.5
Kahului,40,US,1561513749,46,20.89,-156.47,305.15,4.1
Wewak,50,PG,1561513945,68,-3.55,143.63,302.415,2.69
Tabou,100,CI,1561513946,95,4.42,-7.36,296.115,2.33
Westport,0,IE,1561513946,90,53.8,-9.52,287.59,6.0
Dunedin,0,NZ,1561513946,61,-45.87,170.5,282.415,1.04
Conop,0,RO,1561513946,100,46.1,21.88,294.26,2.1
Ponta Delgada,75,PT,1561513947,82,37.73,-25.67,291.15,4.1
Buraydah,0,SA,1561513947,19,26.33,43.97,303.15,1.5
Sur,0,OM,1561513808,62,22.57,59.53,302.515,3.56
Lompoc,1,US,1561513724,72,34.64,-120.46,293.15,6.2
Shimoda,40,JP,1561513947,78,34.7,138.93,302.04,3.1
Lethem,39,GY,1561513948,81,3.38,-59.8,298.315,3.82
Xining,100,CN,1561513948,97,36.62,101.77,283.415,2.11
Yerazgavors,0,AM,1561513948,67,40.7,43.78,288.15,2.6
Yairipok,79,IN,1561513949,70,24.67,94.07,300.615,1.74
Christchurch,41,NZ,1561513816,76,-43.53,172.64,285.37,4.1
Vaitape,14,PF,1561513742,78,-16.52,-151.75,299.615,6.1
Sept-Iles,40,CA,1561513678,76,50.2,-66.38,285.15,3.1
Yerbogachen,0,RU,1561513950,35,61.28,108.01,298.915,4.06
Astara,0,AZ,1561513950,56,38.42,48.87,295.15,2.18
Tianmen,0,CN,1561513950,64,30.65,113.16,302.715,1.4
Kendari,31,ID,1561513950,62,-3.99,122.52,302.615,0.51
Vardo,1,US,1561513951,54,39.62,-77.74,299.15,1.95
Paita,57,PE,1561513951,90,-5.09,-81.11,291.315,8.74
Rundu,0,NA,1561513951,42,-17.91,19.77,283.15,0.5
Puerto del Rosario,73,ES,1561513951,73,28.5,-13.86,295.15,3.6
Kieta,100,PG,1561513952,75,-6.22,155.63,301.715,2.88
Mamallapuram,75,IN,1561513952,74,12.63,80.17,302.15,3.1
General Roca,0,AR,1561513952,34,-39.03,-67.58,283.15,8.7
San Rafael,73,AR,1561513953,30,-34.61,-68.33,278.315,5.1
Half Moon Bay,40,US,1561513953,55,37.46,-122.43,296.15,4.6
Keti Bandar,90,PK,1561513954,84,24.14,67.45,302.015,5.5
Boguchany,11,RU,1561513954,37,58.38,97.46,299.715,3.14
Saint-Max,0,FR,1561513954,64,48.7,6.21,296.15,1.0
Ostersund,18,SE,1561513954,87,63.18,14.64,285.15,1.5
Katsuura,75,JP,1561513955,83,33.93,134.5,299.82,6.2
Mugur-Aksy,52,RU,1561513955,43,50.38,90.44,277.115,2.48
Oranjemund,0,ZA,1561513955,92,-28.55,16.43,285.615,1.84
Ambon,100,FR,1561513956,100,47.55,-2.56,292.04,4.6
Baruun-Urt,0,MN,1561513956,30,46.68,113.28,298.215,5.2
Praia da Vitoria,40,PT,1561513956,88,38.73,-27.07,291.48,6.17
Chumikan,91,RU,1561513958,75,54.72,135.31,282.815,1.9
Alofi,75,NU,1561513958,69,-19.06,-169.92,299.15,6.2
Cairns,90,AU,1561513958,64,-16.92,145.77,297.04,5.7
Edd,67,ER,1561513958,29,13.93,41.69,305.415,0.87
Monrovia,91,LR,1561513949,90,6.33,-10.8,298.115,3.7
Flin Flon,36,CA,1561513959,76,54.77,-101.88,285.715,2.38
Maltahohe,39,NA,1561513959,51,-24.83,16.98,279.315,2.44
East London,43,ZA,1561513959,97,-33.02,27.91,284.115,1.86
Egvekinot,73,RU,1561513960,58,66.32,-179.17,281.215,2.62
Mlonggo,20,ID,1561513960,65,-6.53,110.7,301.15,4.1
Rabak,0,SD,1561513960,55,13.18,32.74,302.715,6.87
Saint Anthony,40,US,1561513960,23,43.97,-111.68,299.15,4.6
Santa Cruz,1,US,1561513766,34,36.97,-122.03,299.15,5.1
Padang,34,ID,1561513962,72,-0.92,100.36,301.215,1.97
Laguna,5,MX,1561513962,16,27.52,-110.01,307.15,4.1
Puerto Colombia,75,CO,1561513963,78,10.99,-74.96,301.15,2.6
Geraldton,40,CA,1561513963,77,49.72,-86.95,292.15,2.6
Pingliang,100,CN,1561513963,70,35.54,106.68,293.515,4.59
Cocobeach,40,GA,1561513963,83,1.01,9.58,298.15,3.1
Kiunga,83,PG,1561513963,71,-6.12,141.3,301.415,2.26
Taoudenni,0,ML,1561513964,8,22.68,-3.98,309.215,7.63
Ulladulla,75,AU,1561513964,72,-35.36,150.48,289.15,1.0
Svetlaya,99,RU,1561513964,98,46.54,138.33,288.815,2.46
Teya,75,MX,1561513965,52,21.05,-89.07,306.15,5.1
Port Keats,100,AU,1561513965,22,-14.25,129.55,299.315,6.28
Kysyl-Syr,0,RU,1561513965,53,63.9,122.77,295.415,2.78
Fortuna,20,ES,1561513966,88,38.18,-1.13,296.15,2.6
Benguela,25,AO,1561513966,81,-12.58,13.4,294.115,3.8
Zhangjiakou,100,CN,1561513966,49,40.77,114.88,295.815,4.02
Codajas,58,BR,1561513966,89,-3.84,-62.06,296.515,1.09
Honningsvag,100,NO,1561513967,88,70.98,25.97,280.715,11.63
Willowmore,1,ZA,1561513967,93,-33.3,23.49,278.615,1.96
Anloga,100,GH,1561513870,91,5.79,0.9,297.015,3.5
Buala,16,SB,1561513967,75,-8.15,159.59,302.015,3.77
Campbell River,75,CA,1561513968,26,50.02,-125.24,295.15,2.6
Parsabad,0,AZ,1561513968,53,39.65,47.92,295.15,1.08
Khasan,59,RU,1561513969,55,42.43,130.64,300.415,3.48
Misratah,0,LY,1561513969,80,32.38,15.09,297.715,1.71
Kenai,40,US,1561513969,76,60.55,-151.26,292.59,5.1
Poum,66,MK,1561513969,89,41.28,20.71,287.115,1.99
Sao Joao da Barra,3,BR,1561513831,88,-21.64,-41.05,293.615,1.09
San Cristobal,20,EC,1561513970,87,-0.39,-78.55,287.15,2.1
Komsomolskiy,100,RU,1561513970,89,67.55,63.78,278.815,5.48
Sandwick,55,GB,1561513970,100,54.57,-2.89,288.15,3.6
Nha Trang,20,VN,1561513971,55,12.24,109.19,306.15,0.5
Kolpashevo,67,RU,1561513971,62,58.31,82.9,295.215,3.54
Jizan,40,SA,1561513971,46,16.89,42.56,307.15,2.6
Kavaratti,33,IN,1561513971,78,10.57,72.64,301.515,7.3
Tervel,3,BG,1561513972,98,43.43,26.76,291.215,4.67
Dronninglund,100,DK,1561513972,93,57.16,10.29,289.82,4.45
Oksfjord,100,NO,1561513972,81,70.24,22.35,283.15,13.9
Lysa Hora,69,UA,1561513972,90,51.6,32.95,289.415,1.45
Ossora,1,RU,1561513973,48,59.24,163.07,289.615,3.02
Opuwo,40,NA,1561513973,75,-18.06,13.84,281.215,1.07
Moron,60,VE,1561513973,96,10.49,-68.2,295.915,0.56
Ola,3,RU,1561513973,73,59.58,151.3,282.515,1.85
Muscat,20,OM,1561513818,89,23.6,58.55,304.15,4.6
Ahuimanu,75,US,1561513974,100,21.44,-157.84,300.15,2.1
Senanga,0,ZM,1561513974,53,-16.1,23.3,283.515,2.07
Constantine,0,DZ,1561513974,38,36.36,6.61,298.15,2.1
Lasalgaon,2,IN,1561513975,71,20.14,74.24,299.815,4.06
Beyneu,60,KZ,1561513975,23,45.32,55.19,305.415,3.85
Polyarnyy,0,RU,1561513975,81,69.2,33.45,282.15,1.0
Aquiraz,40,BR,1561513975,78,-3.9,-38.39,300.15,4.6
Te Anau,0,NZ,1561513678,67,-45.41,167.72,280.715,4.25
Kamina,36,CD,1561513976,50,-8.74,25.0,287.415,2.1
Tignere,100,CM,1561513692,95,7.37,12.65,292.215,1.02
Vao,100,EE,1561513976,80,59.1,26.19,287.015,1.21
Oakton,1,US,1561513978,74,37.46,-94.35,300.15,3.1
Verkhoyansk,68,RU,1561513978,36,67.55,133.39,297.115,3.38
Nyagan,0,RU,1561513978,44,62.14,65.43,286.715,1.69
Ketchikan,1,US,1561513979,56,55.34,-131.65,294.15,3.1
Lebanon,90,US,1561513979,93,43.64,-72.25,292.15,0.98
Lucapa,0,AO,1561513979,37,-8.42,20.74,288.815,1.7
Burnie,4,AU,1561513980,65,-41.05,145.91,288.71,1.34
Strezhevoy,0,RU,1561513980,87,60.73,77.6,284.15,6.0
Sabla,33,NG,1561513980,62,12.75,4.71,301.615,8.2
Sambava,0,MG,1561513981,93,-14.27,50.17,290.415,1.14
Luanda,40,AO,1561513981,88,-8.83,13.24,293.15,1.0
Nichinan,75,JP,1561513981,94,31.65,131.31,297.15,3.45
Waingapu,4,ID,1561513981,61,-9.65,120.26,298.715,7.66
Nishihara,40,JP,1561513982,69,35.74,139.53,302.59,6.7
Gizo,0,IL,1561513982,83,31.8,34.94,297.15,2.6
Athabasca,67,CA,1561513976,85,54.72,-113.29,287.815,0.85
Skibbereen,40,IE,1561513982,93,51.55,-9.27,288.15,3.1
Vila Franca do Campo,75,PT,1561513983,82,37.72,-25.43,291.15,4.1
Langxiang,100,CN,1561513983,61,46.95,128.87,296.815,3.63
Alta Floresta,62,BR,1561513983,65,-9.87,-56.08,294.115,0.58
Iraquara,17,BR,1561513984,88,-12.24,-41.62,288.315,3.88
Jawhar,3,IN,1561513984,65,19.91,73.23,302.815,2.09
Talaya,0,RU,1561513984,72,55.79,84.89,290.15,3.0
Senneterre,40,CA,1561513984,77,48.39,-77.24,292.15,4.1
Porto,20,PT,1561513847,88,41.15,-8.61,291.48,3.6
Yulara,0,AU,1561513985,24,-25.24,130.99,288.15,6.2
Saidpur,100,BD,1561513985,79,25.78,88.89,303.215,3.52
Huarmey,100,PE,1561513985,86,-10.07,-78.15,290.215,7.01
Khani,75,GE,1561513986,94,41.96,42.96,297.15,0.5
Upington,0,ZA,1561513986,34,-28.46,21.24,282.15,2.1
Havre-Saint-Pierre,20,CA,1561513986,76,50.23,-63.6,284.15,2.1
Excelsior Springs,1,US,1561513986,69,39.34,-94.23,302.15,2.6
Gannan,100,CN,1561513987,96,47.92,123.49,290.415,4.31
Portland,75,US,1561513987,49,45.52,-122.67,295.15,9.3
Petrivka,0,UA,1561513987,82,48.39,37.78,289.115,4.16
Inhambane,0,MZ,1561513988,94,-23.87,35.38,287.515,1.67
Thung Song,40,TH,1561513988,83,8.16,99.67,301.15,1.5
Tungor,99,RU,1561513988,92,53.39,142.95,279.015,9.94
Cangucu,100,BR,1561513988,78,-31.39,-52.68,277.615,2.2
Kabinda,0,CD,1561513989,45,-6.14,24.49,292.415,0.68
Sao Felix do Xingu,30,BR,1561513924,78,-6.64,-51.99,295.415,1.3
Muli,78,IN,1561513989,75,22.62,71.45,301.715,3.71
Loandjili,75,CG,1561513989,88,-4.77,11.87,297.15,3.1
Flagstaff,1,US,1561513990,13,35.2,-111.65,301.15,5.1
Nouadhibou,0,MR,1561513990,84,20.93,-17.03,293.115,11.45
Litein,90,KE,1561513990,98,-0.58,35.18,287.415,1.99
Chitipa,17,MW,1561513990,98,-9.7,33.27,284.615,2.4
Pervomaysk,78,RU,1561513991,78,54.87,43.81,285.415,2.79
Bilibino,0,RU,1561513991,28,68.06,166.44,289.715,8.24
Araouane,0,ML,1561513991,10,18.9,-3.53,309.415,2.81
Skjervoy,100,NO,1561513823,80,70.03,20.97,282.115,4.62
Namibe,24,AO,1561513992,82,-15.19,12.15,290.915,4.02
Lavrentiya,100,RU,1561513992,52,65.58,-170.99,284.015,4.19
Bathsheba,40,BB,1561513992,78,13.22,-59.52,300.15,8.2
Dawson Creek,20,CA,1561513993,82,55.76,-120.23,290.37,1.5
Hovd,75,NO,1561513993,87,63.83,10.7,284.26,7.7
Inuvik,75,CA,1561513993,62,68.36,-133.71,279.15,7.2
Alice Springs,0,AU,1561513993,26,-23.7,133.88,288.15,6.2
Husavik,10,CA,1561513994,90,50.56,-96.99,288.715,3.62
Pombas,0,BR,1561513994,60,-15.9,-54.74,292.215,1.36
Yumen,100,CN,1561513994,27,40.29,97.04,296.315,4.4
Chany,54,RU,1561513995,82,55.31,76.76,294.215,6.01
Mujiayingzi,100,CN,1561513995,41,42.12,118.78,297.915,7.1
Tocopilla,0,CL,1561513995,85,-22.09,-70.2,288.115,5.97
Wlodawa,0,PL,1561513995,77,51.55,23.55,291.15,1.0
Wexford,1,US,1561513996,60,40.63,-80.06,296.48,1.79
Samarai,100,PG,1561513997,94,-10.62,150.67,297.515,2.86
Snezhnogorsk,0,RU,1561513997,81,69.19,33.23,282.15,1.0
Kuryk,18,KZ,1561513997,49,43.18,51.68,301.715,3.98
Dawlatabad,0,AF,1561513998,7,36.41,64.91,303.215,0.91
Gat,0,SN,1561513998,83,14.69,-16.54,298.15,3.6
Ravar,0,IR,1561513998,11,31.27,56.81,301.315,0.49
Ushumun,7,RU,1561513998,46,52.78,126.54,295.115,2.85
Turbat,20,PK,1561513999,78,26.0,63.05,301.315,1.68
Kolobrzeg,100,PL,1561513999,64,54.18,15.58,294.82,4.08
Markova,0,RU,1561513999,76,52.21,104.21,287.15,3.0
Saurimo,0,AO,1561513999,38,-9.66,20.4,287.515,2.06
Saint-Augustin,0,FR,1561514000,88,44.83,-0.61,294.26,1.0
Isla Mujeres,40,MX,1561514000,79,21.23,-86.73,302.15,3.6
Eyl,100,SO,1561514001,69,7.98,49.82,298.515,12.83
Gornopravdinsk,100,RU,1561514001,76,60.06,69.92,283.715,5.65
Playa del Carmen,40,MX,1561513721,79,20.63,-87.08,302.15,3.6
Sardarshahr,0,IN,1561513704,33,28.43,74.48,309.815,0.5
Caucaia,40,BR,1561514001,78,-3.73,-38.66,300.15,4.6
Gua Musang,100,MY,1561514002,62,4.88,101.97,300.015,0.28
Batagay,60,RU,1561514002,30,67.65,134.64,299.915,2.11
Kitimat,75,CA,1561514002,33,54.02,-128.69,298.15,3.1
Indiaroba,52,BR,1561514002,92,-11.53,-37.51,292.415,1.18
Mount Pleasant,1,US,1561514003,69,33.16,-94.97,301.15,2.1
Kruisfontein,100,ZA,1561514004,91,-34.0,24.73,285.415,5.92
San Rafael del Sur,40,NI,1561514004,88,11.85,-86.44,298.15,2.1
Lakes Entrance,0,AU,1561514004,79,-37.88,147.99,281.48,1.69
Kutum,99,SD,1561514005,54,14.2,24.66,297.115,0.63
Berezovyy,98,RU,1561514005,57,51.67,135.7,285.715,2.42
Hakkari,90,FI,1561514005,100,61.34,23.75,285.37,3.6
Xunchang,97,CN,1561514005,88,28.45,104.71,296.415,1.18
Magadan,2,RU,1561513841,74,59.56,150.8,282.515,2.69
Bandarbeyla,100,SO,1561514006,60,9.49,50.81,299.815,10.52
Teguldet,98,RU,1561514006,49,57.31,88.17,297.515,0.49
Flinders,75,AU,1561514006,72,-34.58,150.85,291.48,1.0
Barvinkove,0,UA,1561514007,79,48.91,37.03,288.515,3.98
Spanish Town,20,JM,1561514007,62,18.0,-76.95,302.15,3.6
Nguruka,46,TZ,1561514007,60,-5.11,31.04,290.915,1.89
Chontalpa,99,MX,1561514007,86,17.7,-93.52,300.015,1.56
Dhidhdhoo,100,MV,1561514007,77,6.88,73.1,301.515,5.08
Roebourne,81,AU,1561514008,15,-20.77,117.15,300.915,5.19
Kushima,75,JP,1561514008,94,31.5,131.29,297.15,2.6
Rio Grande,100,BR,1561514008,73,-32.03,-52.1,279.715,3.12
Belmonte,0,PT,1561514009,74,40.36,-7.35,289.26,1.03
Gurupi,3,BR,1561514009,53,-11.73,-49.07,295.515,0.82
Alcacer do Sal,20,PT,1561514009,82,38.37,-8.51,292.59,2.1
Saverne,94,FR,1561514009,88,48.74,7.36,295.15,1.0
Galesong,20,ID,1561514010,65,-5.32,119.37,301.15,1.5
Pemba,15,MZ,1561514010,83,-12.97,40.52,295.115,8.21
Koilas,0,GR,1561514010,67,37.41,23.11,297.315,5.81
Scarborough,100,GB,1561514011,93,54.28,-0.41,286.48,3.6
Tigil,8,RU,1561514011,61,57.8,158.67,289.415,7.07
Hornepayne,100,CA,1561514011,98,49.22,-84.78,286.115,2.71
Aasiaat,99,GL,1561514012,96,68.71,-52.87,276.715,1.56
Kidero,0,RU,1561514012,67,42.19,45.96,284.015,1.38
Ninghai,90,CN,1561514012,100,29.29,121.42,297.04,1.0
